City_ID,City,Lat,Lng,Max Temp,Humidity,Cloudiness,Wind Speed,Country,Date
0,georgetown,5.4112,100.3354,24.97,88,20,0.0,MY,1680555818
1,rikitea,-23.1203,-134.9692,26.53,81,90,6.33,PF,1680555819
2,te anau,-45.4167,167.7167,11.21,82,19,0.05,NZ,1680555820
3,husavik,66.0449,-17.3389,3.29,94,100,4.33,IS,1680555821
4,kota kinabalu,5.9749,116.0724,24.99,88,20,2.24,MY,1680555821
5,lebu,-37.6167,-73.65,14.68,63,0,7.85,CL,1680555822
6,andenes,69.3143,16.1194,2.99,75,75,8.23,NO,1680555822
7,naze,28.3667,129.4833,17.51,58,63,9.58,JP,1680555823
8,coihaique,-45.5752,-72.0662,9.48,89,100,2.91,CL,1680555823
9,piranhas,-16.4269,-51.8222,25.8,76,40,0.95,BR,1680555821
10,punta arenas,-53.15,-70.9167,9.37,71,93,10.74,CL,1680555824
11,mecca,21.4267,39.8261,24.21,40,91,1.57,SA,1680555622
12,hilo,19.7297,-155.09,26.27,77,96,2.68,US,1680555826
13,dukhovnitskoye,52.4828,48.2137,8.53,61,3,2.49,RU,1680555827
14,vaini,-21.2,-175.2,28.09,69,20,5.14,TO,1680555827
15,ushuaia,-54.8,-68.3,11.56,76,46,4.3,AR,1680555812
16,barentu,15.1139,37.5928,24.61,21,12,1.81,ER,1680555829
17,busselton,-33.65,115.3333,15.38,79,24,2.86,AU,1680555830
18,tabatinga,-4.2525,-69.9381,24.0,94,75,4.12,BR,1680555714
19,port moresby,-9.4431,147.1797,24.79,90,100,2.94,PG,1680555646
20,bandarbeyla,9.4942,50.8122,27.29,74,19,5.05,SO,1680555831
21,touros,-5.1989,-35.4608,26.26,76,83,3.4,BR,1680555832
22,sitka,57.0531,-135.33,5.68,65,38,0.89,US,1680555835
23,aksarka,66.5606,67.7975,-19.56,91,28,6.08,RU,1680555836
24,tahoua,14.8888,5.2692,28.83,6,100,3.24,NE,1680555837
25,lompoc,34.6391,-120.4579,15.56,55,20,13.38,US,1680555837
26,atuona,-9.8,-139.0333,26.62,83,94,7.2,PF,1680555838
27,mahebourg,-20.4081,57.7,25.7,79,94,4.14,MU,1680555623
28,sironj,24.1,77.7,26.66,26,0,7.15,IN,1680555839
29,hermanus,-34.4187,19.2345,16.73,83,22,0.52,ZA,1680555809
30,chengde,40.9725,117.9361,7.35,57,100,2.2,CN,1680555698
31,chokurdakh,70.6333,147.9167,-15.05,96,96,4.26,RU,1680555841
32,nikolskoye,59.7035,30.7861,-0.05,95,100,3.64,RU,1680555841
33,kruisfontein,-34.0033,24.7314,16.05,85,100,5.89,ZA,1680555842
34,billings,45.7833,-108.5007,7.38,42,75,5.66,US,1680555842
35,bethel,41.3712,-73.414,15.02,45,0,6.69,US,1680555843
36,tasiilaq,65.6145,-37.6368,-3.53,87,100,2.17,GL,1680555606
37,fomboni,-12.28,43.7425,28.43,73,81,3.43,KM,1680555844
38,cape town,-33.9258,18.4232,20.21,80,39,1.21,ZA,1680555621
39,watrous,51.6668,-105.4679,-8.77,77,100,3.61,CA,1680555845
40,weiser,44.251,-116.9693,7.72,44,94,3.58,US,1680555845
41,mbuguni,-3.5667,36.95,20.26,85,100,2.0,TZ,1680555846
42,manokwari,-0.8667,134.0833,25.77,79,100,0.78,ID,1680555846
43,hobart,-42.8794,147.3294,11.92,90,75,3.6,AU,1680555566
44,saint george,37.1041,-113.5841,14.41,44,100,11.32,US,1680555848
45,hithadhoo,-0.6,73.0833,27.89,74,100,5.14,MV,1680555848
46,albany,42.6001,-73.9662,16.99,34,72,6.19,US,1680555849
47,caravelas,-17.7125,-39.2481,24.41,81,100,4.05,BR,1680555849
48,moramanga,-18.9333,48.2,19.03,98,100,0.32,MG,1680555850
49,miyako,39.6367,141.9525,6.12,48,1,1.76,JP,1680555850
50,mataura,-46.1927,168.8643,14.71,76,89,1.33,NZ,1680555851
51,banda aceh,5.5577,95.3222,25.26,84,92,1.49,ID,1680555794
52,pevek,69.7008,170.3133,-28.06,95,45,3.24,RU,1680555852
53,flinders,-34.5833,150.8552,15.66,88,34,1.34,AU,1680555853
54,pundaguitan,6.3711,126.1689,27.02,77,84,1.33,PH,1680555854
55,avera,33.194,-82.5271,19.73,70,96,3.34,US,1680555855
56,klaksvik,62.2266,-6.589,8.51,90,100,10.96,FO,1680555855
57,longyearbyen,78.2186,15.6401,-13.09,78,75,9.77,SJ,1680555856
58,battle creek,42.3212,-85.1797,13.21,67,100,2.06,US,1680555856
59,dudinka,69.4058,86.1778,-35.65,100,56,1.29,RU,1680555857
60,nanticoke,41.2054,-76.0049,18.51,49,44,1.34,US,1680555857
61,port alfred,-33.5906,26.891,17.88,85,57,2.68,ZA,1680555791
62,cortez,37.3489,-108.5859,18.42,21,0,13.89,US,1680555859
63,geraldton,-28.7667,114.6,19.23,82,40,4.63,AU,1680555860
64,puerto colombia,10.9878,-74.9547,29.05,82,6,11.31,CO,1680555861
65,novobirilyussy,56.9514,90.6661,-1.66,94,100,4.58,RU,1680555861
66,tiksi,71.6872,128.8694,-13.17,95,93,2.57,RU,1680555862
67,khandyga,62.6667,135.6,-11.79,91,100,1.27,RU,1680555863
68,saint anthony,45.0205,-93.218,6.96,60,0,4.12,US,1680555765
69,energetik,51.7445,58.7934,3.39,72,48,3.11,RU,1680555864
70,mar del plata,-38.0023,-57.5575,19.41,69,39,0.89,AR,1680555601
71,columbus,39.9612,-82.9988,20.62,53,0,5.14,US,1680555691
72,okha,53.5739,142.9478,0.18,89,100,8.58,RU,1680555866
73,qaanaaq,77.484,-69.3632,-22.34,75,9,2.05,GL,1680555867
74,namatanai,-3.6667,152.4333,26.56,78,99,1.52,PG,1680555867
75,sorrento,40.626,14.3744,12.92,76,100,4.47,IT,1680555868
76,mount isa,-20.7333,139.5,20.87,30,30,1.54,AU,1680555869
77,bolshaya martynovka,47.271,41.6679,8.88,94,18,3.83,RU,1680555870
78,butaritari,3.0707,172.7902,27.86,80,97,8.63,KI,1680555870
79,chapais,49.7834,-74.8492,-0.32,97,100,1.97,CA,1680555871
80,liberal,37.0431,-100.921,23.58,11,0,2.62,US,1680555628
81,port lincoln,-34.7333,135.8667,17.6,73,37,2.42,AU,1680555873
82,ola,59.5833,151.2833,-15.02,79,16,3.29,RU,1680555873
83,saldanha,-33.0117,17.9442,16.54,88,12,3.09,ZA,1680555874
84,chuy,-33.6971,-53.4616,17.76,74,99,2.05,UY,1680555874
85,mandvi,22.8333,69.3667,24.89,82,20,6.17,IN,1680555750
86,bogorodskoye,56.55,37.8833,6.95,92,100,0.66,RU,1680555875
87,aguada de pasajeros,22.385,-80.8508,32.25,37,0,5.49,CU,1680555875
88,gobabis,-22.45,18.9667,19.29,53,7,2.71,NA,1680555876
89,iqaluit,63.7506,-68.5145,-14.61,71,31,5.81,CA,1680555876
90,bay roberts,47.5999,-53.2648,0.74,72,34,6.26,CA,1680555877
91,bluff,-46.6,168.3333,14.89,75,91,5.93,NZ,1680555877
92,sinazongwe,-17.2614,27.4618,23.36,67,39,1.08,ZM,1680555878
93,isangel,-19.55,169.2667,27.74,79,44,2.9,VU,1680555878
94,bambous virieux,-20.3428,57.7575,25.68,78,96,3.94,MU,1680555880
95,yellowknife,62.456,-114.3525,-8.23,84,100,2.24,CA,1680555737
96,puerto carreno,6.189,-67.4859,37.15,24,75,2.68,CO,1680555881
97,poum,-20.2333,164.0167,27.02,80,66,4.59,NC,1680555881
98,bredasdorp,-34.5322,20.0403,16.17,81,28,1.14,ZA,1680555883
99,tezu,27.9167,96.1667,16.75,77,99,1.75,IN,1680555683
100,barrow,71.2906,-156.7887,-15.99,78,75,5.14,US,1680555739
101,arraial do cabo,-22.9661,-42.0278,25.92,61,75,2.06,BR,1680555884
102,lavrentiya,65.5833,-171.0,-14.88,85,96,3.57,RU,1680555602
103,kaoma,-14.7833,24.8,17.34,92,53,2.28,ZM,1680555885
104,norman wells,65.282,-126.8329,-3.98,80,40,2.06,CA,1680555885
105,new norfolk,-42.7826,147.0587,11.72,79,100,1.22,AU,1680555886
106,toora-khem,52.4675,96.11,-12.78,95,98,1.08,RU,1680555887
107,bathsheba,13.2167,-59.5167,27.34,69,75,8.23,BB,1680555889
108,bengkulu,-3.8004,102.2655,23.49,92,100,2.27,ID,1680555889
109,charters towers,-20.1,146.2667,21.82,94,21,1.69,AU,1680555890
110,port arthur,38.8,121.2667,11.12,64,100,3.53,CN,1680555890
111,fez,34.0372,-4.9998,14.14,62,0,2.57,MA,1680555633
112,penzance,50.1186,-5.5371,7.38,76,100,7.08,GB,1680555845
113,jamestown,42.097,-79.2353,9.35,86,100,3.2,US,1680555646
114,porto santo,33.072,-16.3415,17.21,67,40,9.26,PT,1680555892
115,vestmannaeyjar,63.4427,-20.2734,8.36,95,100,14.39,IS,1680555892
116,ribeira grande,38.5167,-28.7,14.32,78,76,2.24,PT,1680555823
117,east london,-33.0153,27.9116,19.01,70,37,7.43,ZA,1680555894
118,deputatskiy,69.3,139.9,-19.47,99,55,1.38,RU,1680555894
119,sembakung,3.8167,117.25,21.78,99,90,0.84,ID,1680555894
120,coquimbo,-29.9533,-71.3436,19.46,72,60,3.66,CL,1680555774
121,castro,-24.7911,-50.0119,19.44,72,2,0.64,BR,1680555896
122,san patricio,28.017,-97.5169,35.65,53,72,7.41,US,1680555896
123,luderitz,-26.6481,15.1594,17.06,70,0,7.96,NA,1680555898
124,high level,58.5169,-117.136,-1.62,78,100,1.31,CA,1680555898
125,tombouctou,20.0,-3.0,27.89,6,0,3.28,ML,1680555899
126,tucuman,-26.8241,-65.2226,23.47,88,76,1.63,AR,1680555729
127,dunedin,-45.8742,170.5036,14.89,71,76,3.58,NZ,1680555693
128,fauvillers,49.8512,5.664,2.47,68,0,0.45,BE,1680555900
129,sao filipe,14.8961,-24.4956,23.92,69,4,1.64,CV,1680555901
130,thompson,55.7435,-97.8558,-8.61,76,100,1.51,CA,1680555901
131,blackwater,-23.5833,148.8833,21.05,81,8,2.57,AU,1680555902
132,emilio carranza,19.9711,-96.6114,29.59,63,61,6.21,MX,1680555903
133,victoria,22.2855,114.1577,23.86,95,89,5.48,HK,1680555773
134,velsk,61.0701,42.0983,0.24,98,100,2.98,RU,1680555903
135,portland,45.5234,-122.6762,9.44,79,75,3.09,US,1680555904
136,la brea,15.8,-85.9667,29.73,70,20,7.72,HN,1680555904
137,paamiut,61.994,-49.6678,1.66,84,100,3.77,GL,1680555905
138,puerto ayora,-0.7393,-90.3518,30.98,87,100,3.13,EC,1680555906
139,jiangyou,31.7667,104.7167,13.11,81,100,0.74,CN,1680555906
140,goderich,43.7501,-81.7165,7.46,63,100,2.78,CA,1680555907
141,garissa,-0.4536,39.6401,28.14,66,48,6.21,KE,1680555907
142,faanui,-16.4833,-151.75,27.87,71,46,3.1,PF,1680555908
143,kurtamysh,54.9103,64.4319,1.01,79,5,2.56,RU,1680555911
144,cherskiy,68.75,161.3,-19.6,82,100,4.58,RU,1680555912
145,darhan,49.4867,105.9228,-7.89,55,0,3.52,MN,1680555912
146,moerai,-22.4333,-151.3333,24.38,74,100,4.96,PF,1680555913
147,lakatoro,-16.0999,167.4164,28.25,76,76,3.96,VU,1680555913
148,college,64.8569,-147.8028,-1.07,62,40,3.09,US,1680555913
149,krivosheino,57.3431,83.9261,0.57,95,100,2.9,RU,1680555914
150,constantine,36.365,6.6147,7.67,81,75,3.6,DZ,1680555914
151,san cristobal,7.7669,-72.225,27.1,42,50,2.44,VE,1680555916
152,jurado,7.1053,-77.7641,28.6,78,85,1.68,CO,1680555916
153,nampula,-15.1165,39.2666,20.38,99,74,2.05,MZ,1680555684
154,bima,-8.4667,118.7167,23.72,97,100,0.51,ID,1680555917
155,linxia,35.6003,103.2064,2.4,81,100,0.5,CN,1680555917
156,ushirombo,-3.4919,31.9639,17.34,96,100,1.14,TZ,1680555918
157,katsuura,35.1333,140.3,10.24,65,0,4.78,JP,1680555918
158,ostrovnoy,68.0531,39.5131,-7.97,85,18,8.55,RU,1680555918
159,ginda,30.6945,78.4932,7.47,72,14,3.65,IN,1680555919
160,muhos,64.808,25.9931,-11.12,95,57,1.8,FI,1680555919
161,cayenne,4.9333,-52.3333,27.02,74,40,5.14,GF,1680555919
162,nyurba,63.2842,118.3319,-9.88,96,100,2.23,RU,1680555920
163,hay river,60.8156,-115.7999,-6.82,84,97,2.19,CA,1680555922
164,adre,13.4667,22.2,28.01,14,80,2.9,TD,1680555923
165,show low,34.2542,-110.0298,16.16,17,0,18.52,US,1680555923
166,torbay,47.6666,-52.7314,0.32,77,8,4.47,CA,1680555923
167,kodiak,57.79,-152.4072,0.73,100,100,0.0,US,1680555924
168,vostok,46.4856,135.8833,3.91,92,100,3.18,RU,1680555924
169,balkanabat,39.5108,54.3671,9.84,69,23,2.27,TM,1680555925
170,rawson,-43.3002,-65.1023,21.21,29,0,1.73,AR,1680555927
171,port elizabeth,-33.918,25.5701,17.95,86,73,5.36,ZA,1680555928
172,kapaa,22.0752,-159.319,25.99,80,75,6.17,US,1680555879
173,kyzyl-mazhalyk,51.1333,90.6,-6.32,44,5,0.85,RU,1680555929
174,vila velha,-20.3297,-40.2925,25.97,66,0,3.09,BR,1680555929
175,qinzhou,21.95,108.6167,22.8,93,9,3.3,CN,1680555675
176,strangnas,59.3774,17.0312,-1.14,82,62,1.29,SE,1680555913
177,opuwo,-18.0607,13.84,22.71,37,63,1.22,NA,1680555930
178,manyoni,-5.7467,34.8382,17.51,91,91,1.1,TZ,1680555931
179,ilulissat,69.2167,-51.1,-8.99,67,40,7.72,GL,1680555927
180,skelleftea,64.7507,20.9528,-3.8,58,20,3.09,SE,1680555740
181,kaitangata,-46.2817,169.8464,13.27,74,64,2.96,NZ,1680555932
182,kropotkin,45.4375,40.5756,8.42,91,61,1.99,RU,1680555815
183,eyl,7.9803,49.8164,27.69,70,27,5.41,SO,1680555933
184,beloha,-25.1667,45.05,22.88,88,30,4.97,MG,1680555933
185,ponta do sol,32.6667,-17.1,18.35,60,38,4.8,PT,1680555934
186,talnakh,69.4865,88.3972,-33.64,99,66,2.37,RU,1680555934
187,maniitsoq,65.4167,-52.9,-0.24,71,51,2.85,GL,1680555935
188,atar,20.5169,-13.0499,30.0,8,35,4.61,MR,1680555935
189,cedar city,37.6775,-113.0619,1.33,93,100,8.75,US,1680555936
190,chicama,-7.8447,-79.1469,29.3,66,93,4.11,PE,1680555936
191,pisco,-13.7,-76.2167,27.03,69,0,8.23,PE,1680555937
192,yurty,56.0498,97.6348,-2.12,76,100,6.53,RU,1680555648
193,kyra,49.5776,111.9753,-14.58,81,1,1.86,RU,1680555939
194,carnarvon,-24.8667,113.6333,23.87,74,8,6.13,AU,1680555939
195,mandera,3.9366,41.867,30.54,51,5,1.52,KE,1680555940
196,copacabana,6.3463,-75.5089,27.24,82,100,1.12,CO,1680555940
197,avarua,-21.2078,-159.775,27.03,61,98,3.6,CK,1680555841
198,fort nelson,58.8053,-122.7002,-2.48,83,100,3.54,CA,1680555941
199,irbeyskoye,55.6428,95.4522,-1.39,68,100,6.87,RU,1680555941
200,mehamn,71.0357,27.8492,0.97,69,40,10.8,NO,1680555942
201,zhigansk,66.7697,123.3711,-13.47,99,99,4.22,RU,1680555942
202,awbari,26.5921,12.7805,16.99,10,0,4.03,LY,1680555943
203,trairi,-3.2778,-39.2689,25.23,83,38,1.92,BR,1680555944
204,simpang,-1.2667,104.0833,23.39,97,100,0.78,ID,1680555945
205,leningradskiy,69.3833,178.4167,-26.66,91,8,1.31,RU,1680555945
206,gboko,7.3179,8.9951,29.94,56,100,7.0,NG,1680555945
207,houston,29.7633,-95.3633,32.45,64,75,6.17,US,1680555946
208,labuhan,-6.8844,112.2051,25.12,83,100,2.96,ID,1680555947
209,bourg-en-bresse,46.1667,5.1667,5.9,65,0,3.78,FR,1680555949
210,batagay-alyta,67.8006,130.4114,-22.11,88,17,2.95,RU,1680555950
211,cidreira,-30.1811,-50.2056,22.69,72,27,6.18,BR,1680555846
212,polunochnoye,60.8697,60.4153,-1.73,96,100,3.31,RU,1680555951
213,petropavlovsk-kamchatskiy,53.0452,158.6483,0.33,60,0,6.0,RU,1680555953
214,nueva gerona,21.8833,-82.8,28.43,62,10,5.74,CU,1680555954
215,nome,64.5011,-165.4064,-9.91,78,75,2.06,US,1680555955
216,gull lake,50.1001,-108.4847,-4.98,84,100,3.22,CA,1680555956
217,aquiraz,-3.9014,-38.3911,28.05,80,71,2.74,BR,1680555956
218,mbuji-mayi,-6.15,23.6,21.11,94,83,0.86,CD,1680555859
219,tabou,4.423,-7.3528,26.55,85,32,2.49,CI,1680555958
220,fukue,32.6881,128.8419,16.57,81,100,5.29,JP,1680555958
221,harper,4.375,-7.7169,26.5,85,40,2.98,LR,1680555958
222,sioux lookout,50.1001,-91.917,-4.12,76,100,3.95,CA,1680555959
223,auki,-8.7676,160.7034,27.27,79,95,1.54,SB,1680555959
224,asau,46.4333,26.4,3.51,90,100,2.54,RO,1680555960
225,aklavik,68.2191,-135.0107,-9.64,82,83,0.99,CA,1680555960
226,russellville,35.2784,-93.1338,28.41,61,24,5.22,US,1680555961
227,rajbiraj,26.5333,86.75,22.5,51,6,3.0,NP,1680555962
228,tres picos,15.8667,-93.5333,30.99,63,22,4.47,MX,1680555963
229,meadow lake,34.8014,-106.5436,24.27,6,0,13.09,US,1680555964
230,ballarat,-37.5662,143.8496,12.54,78,28,0.45,AU,1680555965
231,narrabri,-30.3167,149.7833,15.85,82,17,1.79,AU,1680555965
232,saskylakh,71.9167,114.0833,-22.02,97,97,5.13,RU,1680555966
233,ormara,25.2088,64.6357,23.6,64,0,6.18,PK,1680555966
234,vilhena,-12.7406,-60.1458,23.45,94,82,1.03,BR,1680555966
235,severo-kurilsk,50.6789,156.125,0.02,91,77,6.31,RU,1680555967
236,pa sang,18.5262,98.9394,24.11,47,4,0.63,TH,1680555968
237,ancud,-41.8697,-73.8203,14.05,73,6,2.69,CL,1680555773
238,saint-philippe,-21.3585,55.7679,23.77,81,100,4.74,RE,1680555968
239,smiltene,57.4244,25.9016,-1.36,93,99,3.17,LV,1680555969
240,teknaf,20.8624,92.3058,22.54,88,7,1.82,BD,1680555786
241,agadez,19.75,10.25,23.93,8,65,2.26,NE,1680555970
242,nouadhibou,20.931,-17.0347,20.99,73,65,9.26,MR,1680555970
243,tashla,51.7716,52.7427,8.53,56,42,2.93,RU,1680555971
244,straumen,63.8709,11.2999,3.0,99,100,3.3,NO,1680555971
245,buala,-8.145,159.5921,27.85,80,98,2.9,SB,1680555972
246,berga,60.392,5.328,3.93,86,20,2.06,NO,1680555769
247,mikhaylovka,50.06,43.2379,10.44,80,92,2.99,RU,1680555973
248,kieta,-6.2167,155.6333,27.05,82,73,0.94,PG,1680555974
249,mackay,-21.15,149.2,23.71,84,58,3.56,AU,1680555974
250,okhotsk,59.3833,143.3,-11.25,90,100,2.59,RU,1680555750
251,khatanga,71.9667,102.5,-26.92,96,98,4.37,RU,1680555975
252,esperance,-33.8667,121.9,18.73,84,98,2.46,AU,1680555976
253,port hedland,-20.3167,118.5667,27.03,89,10,1.54,AU,1680555976
254,namibe,-15.1961,12.1522,25.06,67,95,2.59,AO,1680555977
255,necochea,-38.5473,-58.7368,19.05,69,0,5.2,AR,1680555895
256,port hardy,50.6996,-127.4199,6.94,59,42,6.07,CA,1680555977
257,provideniya,64.3833,-173.3,-11.94,67,75,7.0,RU,1680555978
258,vangaindrano,-23.35,47.6,22.91,91,46,0.72,MG,1680555978
259,adrar,20.5022,-10.0711,26.4,6,0,1.87,MR,1680555979
260,maceio,-9.6658,-35.7353,27.69,78,40,5.14,BR,1680555863
261,los llanos de aridane,28.6585,-17.9182,18.4,85,20,8.23,ES,1680555979
262,berea,41.3662,-81.8543,19.63,44,100,2.57,US,1680555980
263,sur,22.5667,59.5289,24.12,58,5,2.48,OM,1680555980
264,pingliang,35.5392,106.6861,1.35,90,96,1.49,CN,1680555981
265,ishigaki,24.3448,124.1572,22.44,64,54,8.45,JP,1680555981
266,general cepeda,25.3833,-101.45,32.26,11,96,4.5,MX,1680555981
267,harer,9.3094,42.1258,16.04,82,99,0.74,ET,1680555982
268,mahibadhoo,3.7833,72.9667,27.54,75,9,3.2,MV,1680555728
269,la huacana,18.9667,-101.8167,36.87,16,3,2.57,MX,1680555983
270,kronshtadt,59.9936,29.7736,0.1,92,99,4.23,RU,1680555983
271,dingle,10.9995,122.6711,23.74,90,100,2.51,PH,1680555984
272,salaya,22.3167,69.6,24.69,79,7,5.12,IN,1680555941
273,airai,-8.9266,125.4092,14.11,87,99,0.91,TL,1680555985
274,sturgeon bay,44.8342,-87.377,13.2,33,0,4.12,US,1680555985
275,dikson,73.5069,80.5464,-27.49,99,100,4.99,RU,1680555986
276,myitkyina,25.3833,97.4,15.81,94,6,1.12,MM,1680555986
277,teya,60.3778,92.6267,-9.69,96,53,1.73,RU,1680555988
278,quelimane,-17.8786,36.8883,21.71,85,9,1.61,MZ,1680555989
279,iskandar,41.5539,69.7008,9.47,82,100,0.95,UZ,1680555990
280,ust-nera,64.5667,143.2,-20.41,98,67,2.61,RU,1680555991
281,meulaboh,4.1363,96.1285,24.41,88,94,1.99,ID,1680555993
282,upernavik,72.7868,-56.1549,-25.26,96,60,1.79,GL,1680555994
283,sawakin,19.1059,37.3321,23.45,56,97,2.39,SD,1680555994
284,orocue,4.7912,-71.3354,33.48,38,98,2.12,CO,1680555995
285,gamba,-2.65,10.0,26.04,83,100,2.38,GA,1680555727
286,salvador,13.8333,-88.9167,32.25,20,22,2.88,SV,1680555995
287,seoul,37.5683,126.9778,13.69,27,100,1.76,KR,1680555908
288,conceicao da barra,-18.5933,-39.7322,25.0,69,100,3.77,BR,1680555996
289,birao,10.2849,22.7882,26.69,13,7,2.43,CF,1680555997
290,codrington,-38.2667,141.9667,10.37,91,49,1.67,AU,1680555998
291,matipo,-20.2839,-42.3411,20.52,87,100,0.94,BR,1680555999
292,ust-kan,50.9276,84.761,-6.84,75,21,1.4,RU,1680555999
293,pangnirtung,66.1451,-65.7125,-13.29,83,53,1.1,CA,1680556000
294,emerald,-23.5333,148.1667,19.08,91,5,3.1,AU,1680556000
295,kudahuvadhoo,2.6708,72.8944,27.63,71,14,2.08,MV,1680556001
296,magadan,59.5667,150.8,-13.43,74,16,3.08,RU,1680555773
297,salta,-24.7859,-65.4117,23.1,83,94,0.89,AR,1680555949
298,trinidad,-14.8333,-64.9,31.99,58,40,2.06,BO,1680556002
299,sao lourenco do sul,-31.3653,-51.9783,21.94,74,78,5.02,BR,1680556003
300,nizwa,22.9333,57.5333,20.83,30,0,1.16,OM,1680555855
301,sale,34.0389,-6.8166,16.53,100,14,0.0,MA,1680555933
302,taltal,-25.4,-70.4833,21.79,81,44,1.67,CL,1680556006
303,birigui,-21.2886,-50.34,25.17,70,0,2.26,BR,1680556007
304,kumluca,36.3703,30.2869,15.24,61,36,2.6,TR,1680555931
305,viesca,25.35,-102.8,35.16,9,100,1.38,MX,1680556008
306,barrancas,10.9576,-72.7877,35.43,37,36,4.77,CO,1680556008
307,broken hill,-31.95,141.4333,14.79,36,0,2.91,AU,1680556008
308,ambon,-3.6954,128.1814,23.08,94,40,4.12,ID,1680556009
309,xuddur,4.1213,43.8894,28.75,52,100,3.46,SO,1680556009
310,arlit,18.7369,7.3853,26.64,6,95,3.32,NE,1680556010
311,carauari,-4.8828,-66.8958,26.57,83,94,1.17,BR,1680556011
312,witu,-2.3889,40.4382,28.09,82,25,3.07,KE,1680556011
313,jian,27.1172,114.9793,22.42,82,100,6.69,CN,1680556012
314,biu,10.6129,12.1946,28.66,16,40,2.81,NG,1680556012
315,awjilah,29.1081,21.2869,18.94,30,0,3.9,LY,1680556013
316,chapada dos guimaraes,-15.4606,-55.7497,24.81,81,34,1.57,BR,1680556013
317,nyrob,60.733,56.7202,1.36,98,100,2.64,RU,1680556014
318,bria,6.5423,21.9863,26.47,34,31,1.87,CF,1680556014
319,ilo,-17.6394,-71.3375,26.48,69,0,6.17,PE,1680556015
320,verkhnyaya maksakovka,61.635,50.9674,0.01,74,0,6.0,RU,1680556015
321,bambanglipuro,-7.95,110.2833,23.46,91,100,2.38,ID,1680556016
322,arica,-18.475,-70.3042,27.75,61,0,5.14,CL,1680556017
323,menongue,-14.6585,17.691,17.08,89,87,1.95,AO,1680556017
324,baruun-urt,46.6806,113.2792,-7.35,40,82,1.81,MN,1680556018
325,lalin,42.7167,-8.1167,9.05,72,100,0.99,ES,1680556018
326,tumut,-35.3,148.2167,14.92,83,79,1.48,AU,1680556019
327,seltso,53.3675,34.1,6.27,100,99,4.0,RU,1680556019
328,itarema,-2.9248,-39.9167,25.48,81,77,2.51,BR,1680556020
329,gat,31.61,34.7642,20.78,44,0,2.56,IL,1680556020
330,sibiti,-3.6819,13.3499,21.08,97,98,0.54,CG,1680556021
331,manali,13.1667,80.2667,29.05,86,100,5.61,IN,1680556021
332,tuktoyaktuk,69.4541,-133.0374,-18.0,71,75,0.0,CA,1680556021
333,valparaiso,-33.0393,-71.6273,25.13,45,0,6.69,CL,1680555979
334,dig,27.4667,77.3333,24.94,33,54,1.54,IN,1680556022
335,aljezur,37.3191,-8.8033,13.86,80,100,5.75,PT,1680556021
336,lufilufi,-13.8745,-171.5986,27.66,74,100,1.9,WS,1680556024
337,makakilo city,21.3469,-158.0858,27.18,67,0,6.69,US,1680556024
338,miami,25.7743,-80.1937,31.67,69,75,7.2,US,1680555984
339,narsaq,60.9167,-46.05,8.12,80,100,3.18,GL,1680556025
340,leh,34.1667,77.5833,-3.83,88,98,1.63,IN,1680556012
341,port shepstone,-30.7414,30.455,20.13,79,97,7.75,ZA,1680555821
342,grindavik,63.8424,-22.4338,8.26,100,100,14.92,IS,1680556027
343,sambava,-14.2667,50.1667,24.77,88,47,2.03,MG,1680556028
344,hualmay,-11.0964,-77.6139,26.57,72,88,4.14,PE,1680556029
345,san carlos de bariloche,-41.1456,-71.3082,17.86,22,0,7.72,AR,1680556029
346,alofi,-19.0595,-169.9187,26.94,83,75,4.63,NU,1680556030
347,boyabat,41.4689,34.7667,12.79,75,80,0.32,TR,1680556030
348,santa maria da vitoria,-13.3947,-44.1886,27.48,45,78,0.85,BR,1680556031
349,zatoka,46.0725,30.4654,8.29,86,100,3.99,UA,1680556031
350,sinnamary,5.3833,-52.95,26.45,71,67,3.69,GF,1680556032
351,carbonia,39.1672,8.5222,11.36,83,15,3.07,IT,1680555790
352,luganville,-15.5333,167.1667,28.23,79,66,4.43,VU,1680556035
353,beipiao,41.7919,120.7792,5.73,23,100,7.39,CN,1680556036
354,nyirlugos,47.6932,22.0448,1.66,66,81,8.75,HU,1680556037
355,suining,30.508,105.5733,12.9,61,100,4.05,CN,1680556037
356,zhicheng,30.2956,111.5047,12.29,84,100,4.53,CN,1680556038
357,polignano a mare,40.9959,17.2159,11.51,84,100,9.92,IT,1680556038
358,puerto lempira,15.2667,-83.7667,29.08,70,40,6.17,HN,1680556039
359,oyem,1.5995,11.5793,20.77,97,100,1.33,GA,1680556039
360,san policarpo,12.1791,125.5072,25.6,83,100,4.92,PH,1680556040
361,turayf,31.6725,38.6637,17.68,23,0,3.98,SA,1680556027
362,killybegs,54.6333,-8.45,9.03,84,100,7.3,IE,1680556042
363,iwaki,37.05,140.8833,6.53,65,0,1.99,JP,1680556043
364,kamenka,51.3223,42.7678,10.24,63,88,4.33,RU,1680556043
365,priiskovyy,51.9333,116.6333,-7.62,55,10,5.55,RU,1680556044
366,madang,-5.2246,145.7966,24.31,91,100,2.24,PG,1680556044
367,aranos,-24.1333,19.1167,21.93,26,15,5.34,NA,1680556045
368,muroto,33.2833,134.15,14.35,66,43,3.55,JP,1680556046
369,clyde river,70.4692,-68.5914,-21.36,91,6,1.53,CA,1680556046
370,yichang,30.7144,111.2847,13.55,83,100,1.05,CN,1680556014
371,bubaque,11.2833,-15.8333,25.86,75,21,7.01,GW,1680556047
372,pavilosta,56.8879,21.1859,-2.05,62,6,6.27,LV,1680555949
373,foam lake,51.65,-103.5343,-10.6,78,100,3.8,CA,1680556047
374,kavieng,-2.5744,150.7967,27.33,76,100,1.88,PG,1680556048
375,kahului,20.8947,-156.47,24.91,80,51,4.02,US,1680555812
376,mersin,36.862,34.6509,16.17,74,70,3.45,TR,1680555935
377,salalah,17.0151,54.0924,30.05,20,0,4.12,OM,1680556050
378,takestan,36.0696,49.6959,8.57,72,16,2.78,IR,1680556050
379,timra,62.487,17.3257,-1.18,80,0,1.03,SE,1680556051
380,abonnema,4.7084,6.7931,25.09,86,96,2.0,NG,1680556051
381,jardim,-21.4803,-56.1381,28.09,65,0,1.07,BR,1680556051
382,zasheyek,67.4066,32.5499,-10.83,99,99,1.7,RU,1680556052
383,bondo,3.8146,23.6866,21.62,88,72,1.43,CD,1680556052
384,muros,42.7762,-9.0603,13.24,88,100,3.81,ES,1680556053
385,anadyr,64.75,177.4833,-24.72,75,0,4.0,RU,1680556053
386,sakhon nakhon,17.1612,104.1472,28.58,44,29,2.48,TH,1680556054
387,mazatlan,23.2167,-106.4167,25.98,77,100,3.09,MX,1680556054
388,galesong,-5.3166,119.3661,24.01,80,91,1.91,ID,1680556055
389,massaguet,12.4755,15.4365,30.26,17,97,4.88,TD,1680556056
390,gorontalo,0.5412,123.0595,23.07,94,98,0.97,ID,1680556056
391,camden,39.7835,-74.9663,18.16,53,100,1.34,US,1680556057
392,syumsi,57.1111,51.6149,3.93,87,90,2.07,RU,1680556058
393,loikaw,19.6742,97.2094,17.97,69,13,1.52,MM,1680556058
394,lata,40.1629,-8.3327,14.34,86,100,1.68,PT,1680556059
395,waddan,29.1614,16.139,16.27,24,0,3.53,LY,1680556059
396,walvis bay,-22.9575,14.5053,18.17,68,0,5.38,NA,1680556059
397,sobolevo,54.4299,31.8996,0.46,98,100,3.97,RU,1680556060
398,jennings,38.7192,-90.2604,26.75,54,20,8.75,US,1680556060
399,ruidoso,33.3317,-105.673,19.98,8,0,14.4,US,1680556060
400,mankapur,27.0333,82.2333,23.47,43,11,2.27,IN,1680556061
401,magalia,39.8121,-121.5783,9.75,42,69,5.11,US,1680556062
402,barcelos,41.5388,-8.6151,14.4,79,100,1.86,PT,1680556062
403,milkovo,54.7167,158.6167,-1.08,74,16,0.83,RU,1680556063
404,mount gambier,-37.8333,140.7667,10.07,95,100,1.32,AU,1680556063
405,khed,17.7167,73.3833,21.32,88,4,0.94,IN,1680556063
406,sao joao da barra,-21.6403,-41.0511,25.05,75,100,4.68,BR,1680556066
407,cockburn town,21.4612,-71.1419,25.37,80,0,7.42,TC,1680556066
408,lagoa,39.05,-27.9833,14.5,73,98,6.02,PT,1680556066
409,karratha,-20.7377,116.8463,27.62,75,10,3.19,AU,1680556067
410,haicheng,40.8516,122.7475,10.54,29,100,5.43,CN,1680556068
411,itaberaba,-12.5275,-40.3069,28.85,45,100,4.28,BR,1680556068
412,aden,12.7794,45.0367,28.15,79,100,5.3,YE,1680556068
413,glens falls,43.3095,-73.644,16.83,34,0,6.17,US,1680556069
414,benguela,-12.5763,13.4055,26.51,84,94,3.22,AO,1680555784
415,zalantun,48.0,122.7167,-1.76,26,72,6.97,CN,1680556070
416,teluknaga,-6.0989,106.6381,25.66,94,40,2.57,ID,1680555832
417,vila franca do campo,37.7167,-25.4333,14.23,75,69,2.73,PT,1680556071
418,tura,25.5198,90.2201,20.78,71,97,2.48,IN,1680556072
419,trelew,-43.249,-65.3051,22.93,18,0,4.7,AR,1680556072
420,kuusamo,65.9667,29.1833,-13.98,78,0,1.03,FI,1680556073
421,guadalupe,25.6833,-100.25,38.0,30,40,3.6,MX,1680556073
422,udachnyy,66.4167,112.4,-13.31,93,100,8.32,RU,1680556073
423,yulara,-25.2406,130.9889,21.65,42,93,3.07,AU,1680556030
424,mount vernon,40.9126,-73.8371,18.13,54,75,8.75,US,1680556074
425,bayir,37.2687,28.2167,17.29,49,66,7.25,TR,1680556075
426,alexandria,31.2156,29.9553,18.57,52,0,4.66,EG,1680556075
427,baherden,38.4362,57.4316,10.86,58,83,1.21,TM,1680556076
428,olafsvik,64.8945,-23.7142,5.53,93,100,10.03,IS,1680556076
429,samarai,-10.6167,150.6667,28.22,78,97,3.76,PG,1680556077
430,raudeberg,61.9875,5.1352,4.42,72,36,7.2,NO,1680556077
431,yanam,16.7333,82.2167,26.64,84,96,2.08,IN,1680556078
432,merauke,-8.4667,140.3333,24.5,89,100,2.22,ID,1680556079
433,guaratinga,-16.5667,-39.5667,22.07,96,100,1.93,BR,1680556079
434,pinotepa nacional,16.3167,-98.0167,32.94,39,65,5.97,MX,1680556080
435,gravelbourg,49.8834,-106.5512,-6.25,86,100,3.31,CA,1680556080
436,phalaborwa,-23.943,31.1411,23.06,53,3,1.92,ZA,1680556081
437,mocuba,-16.8392,36.9856,19.75,94,30,0.42,MZ,1680556082
438,maputo,-25.9653,32.5892,22.9,91,30,1.79,MZ,1680555905
439,hami,42.8,93.45,0.54,69,100,5.87,CN,1680556010
440,porto novo,6.4965,2.6036,28.03,79,100,4.28,BJ,1680556083
441,pacific grove,36.6177,-121.9166,14.56,59,0,10.8,US,1680556084
442,tabas,33.5959,56.9244,16.19,22,0,0.56,IR,1680556084
443,saint-pierre,-21.3393,55.4781,24.2,78,0,2.57,RE,1680556084
444,nador,35.174,-2.9287,16.14,72,0,1.54,MA,1680556085
445,dzilam gonzalez,21.2833,-88.9333,35.87,33,68,3.06,MX,1680556085
446,tiarei,-17.5333,-149.3333,31.01,71,31,2.69,PF,1680556086
447,ha tinh,18.3333,105.9,25.51,69,16,1.67,VN,1680556086
448,lixourion,38.2019,20.4314,12.54,83,100,5.42,GR,1680556086
449,vardo,70.3705,31.1107,-2.01,80,100,13.89,NO,1680556087
450,yumen,40.2833,97.2,1.19,43,100,6.73,CN,1680556077
451,pozo colorado,-23.4923,-58.7972,30.69,47,0,1.89,PY,1680556089
452,verkhoyansk,67.5447,133.385,-22.69,96,46,0.21,RU,1680556089
453,kafanchan,9.5833,8.3,25.96,21,55,0.16,NG,1680556093
454,loding,67.3,14.75,3.95,92,75,6.69,NO,1680556093
455,bulawayo,-20.15,28.5833,17.07,62,52,2.27,ZW,1680556093
456,tornio,65.8481,24.1466,-8.99,93,50,3.04,FI,1680555875
457,ugoofaaru,5.6667,73.0,27.54,73,22,3.02,MV,1680556096
458,henties bay,-22.116,14.2845,16.86,81,0,2.29,NA,1680556096
459,smithers,54.7804,-127.1743,4.81,44,74,1.51,CA,1680556097
460,gasa,31.5,34.4667,18.27,64,0,1.03,PS,1680556097
461,ixtapa,20.7,-105.2,25.57,78,40,5.66,MX,1680556098
462,isla mujeres,21.2311,-86.731,28.03,69,8,6.31,MX,1680556099
463,kiama,-34.6833,150.8667,15.77,91,42,0.98,AU,1680556100
464,clyde,41.3042,-82.9752,19.39,54,99,2.64,US,1680556100
465,igrim,63.1906,64.4162,-8.86,86,47,3.12,RU,1680556101
466,agar,23.7,76.0167,24.75,31,0,4.69,IN,1680556101
467,tire,38.0888,27.7351,14.41,42,68,4.58,TR,1680556102
468,rio gallegos,-51.6226,-69.2181,19.95,29,100,13.16,AR,1680555809
469,dolores,-36.3132,-57.6792,18.19,81,88,1.79,AR,1680556055
470,belmonte,-15.8631,-38.8828,25.46,80,66,4.58,BR,1680556105
471,nanpiao,41.0982,120.7479,8.42,21,100,5.39,CN,1680556106
472,pilar,-9.5972,-35.9567,26.96,76,89,2.84,BR,1680556107
473,mozarlandia,-14.7447,-50.5706,23.64,87,53,2.09,BR,1680555948
474,lulea,65.5842,22.1547,-3.96,80,0,3.6,SE,1680556108
475,batagay,67.6333,134.6333,-21.01,98,83,1.28,RU,1680556109
476,benton harbor,42.1167,-86.4542,16.63,64,100,4.3,US,1680556109
477,manggar,-2.8833,108.2667,24.87,88,100,1.64,ID,1680556109
478,jimo,36.3897,120.4622,11.16,90,100,7.93,CN,1680556110
479,saravan,39.7196,45.6483,5.83,76,92,0.86,AM,1680556111
480,kontagora,10.3999,5.4695,30.45,13,21,1.22,NG,1680556112
481,burns lake,54.2331,-125.7533,2.6,57,84,1.37,CA,1680555910
482,santa maria,-29.6842,-53.8069,25.03,33,92,1.67,BR,1680556113
483,del rio,29.3627,-100.8968,36.06,15,0,1.54,US,1680555854
484,kouqian,43.6391,126.4578,6.6,43,100,2.58,CN,1680556114
485,saint-joseph,-21.3667,55.6167,23.59,81,100,3.33,RE,1680556114
486,celestun,20.8667,-90.4,29.63,62,65,6.18,MX,1680556115
487,caronport,50.4501,-105.8179,-7.19,87,100,3.73,CA,1680556116
488,antofagasta,-23.65,-70.4,22.6,81,43,3.15,CL,1680556117
489,bonthe,7.5264,-12.505,26.75,83,29,2.38,SL,1680556117
490,broome,42.2506,-75.833,17.67,40,76,5.36,US,1680556118
491,faya,18.3851,42.4509,14.29,65,14,1.98,SA,1680556120
492,miracema do tocantins,-9.5618,-48.3967,24.47,88,53,1.21,BR,1680556120
493,lock haven,41.137,-77.4469,19.43,52,48,4.48,US,1680556121
494,berdigestyakh,62.0989,126.6992,-10.35,97,100,1.16,RU,1680556121
495,kirillov,59.863,38.3813,0.58,99,100,2.64,RU,1680556122
496,acarau,-2.8856,-40.12,25.53,81,72,2.56,BR,1680556122
497,cabo san lucas,22.8909,-109.9124,28.67,41,100,8.75,MX,1680556123
498,luwuk,-0.9516,122.7875,24.74,93,100,2.13,ID,1680556123
499,verkhnechusovskiye gorodki,58.1671,57.1086,0.23,94,100,1.57,RU,1680556000
500,sarangani,5.4033,125.4636,26.97,76,89,0.92,PH,1680556124
501,omboue,-1.5746,9.2618,25.8,85,100,2.4,GA,1680556125
502,whitehorse,60.7161,-135.0538,-1.61,49,46,1.1,CA,1680556126
503,lom sak,16.7798,101.2422,25.62,44,22,1.58,TH,1680556126
504,coahuayana,18.7333,-103.6833,32.44,40,62,3.82,MX,1680556127
505,oriximina,-1.7656,-55.8661,26.66,86,26,1.28,BR,1680556128
506,san andres,12.5847,-81.7006,26.6,75,44,8.08,CO,1680556129
507,luanda,-8.8368,13.2343,26.51,77,99,4.19,AO,1680556048
508,yaan,7.3833,8.5667,29.94,58,97,6.19,NG,1680556130
509,conde,-7.2597,-34.9075,26.7,78,20,5.14,BR,1680556131
510,sokolo,14.7328,-6.1219,31.78,8,0,3.4,ML,1680556131
511,nemuro,43.3236,145.575,1.23,62,3,3.2,JP,1680556132
512,stara vyzhivka,51.4376,24.44,0.2,71,100,2.46,UA,1680556025
513,taksimo,56.3444,114.8794,-14.03,79,97,2.63,RU,1680556132
514,srednekolymsk,67.45,153.6833,-17.14,77,99,1.83,RU,1680556134
515,urumqi,43.801,87.6005,-4.47,43,0,1.0,CN,1680556136
516,souillac,-20.5167,57.5167,25.17,84,96,3.63,MU,1680556136
517,korla,41.7597,86.1469,-0.32,24,2,4.67,CN,1680556136
518,aberdeen,57.1437,-2.0981,5.67,90,40,5.14,GB,1680556137
519,tottori,35.5,134.2333,7.52,47,22,2.31,JP,1680556138
520,emba,48.8264,58.1442,8.09,41,97,4.66,KZ,1680556138
521,fasa,28.9383,53.6482,6.58,57,0,0.0,IR,1680556139
522,lorengau,-2.0226,147.2712,26.81,78,100,1.32,PG,1680556140
523,armizonskoye,55.9461,67.6736,-0.46,81,5,2.34,RU,1680556140
524,parsabad,39.6482,47.9174,9.18,93,75,3.09,IR,1680556141
525,benjamin aceval,-24.9667,-57.5667,33.08,44,0,1.91,PY,1680556141
526,rey bouba,8.6724,14.1786,32.83,17,100,1.39,CM,1680556143
527,ibotirama,-12.1853,-43.2206,28.88,37,34,0.89,BR,1680556143
528,lovozero,68.005,35.0117,-10.39,95,92,2.52,RU,1680556144
529,kaputa,-8.4689,29.6619,20.08,91,66,1.78,ZM,1680556145
530,laguna,38.421,-121.4238,14.52,30,0,10.8,US,1680556145
531,griffith,41.5284,-87.4237,17.83,39,75,5.66,US,1680556146
532,bururi,-3.85,29.6333,14.36,90,99,0.78,BI,1680556146
533,palmerston,-12.486,130.9833,25.99,94,100,2.06,AU,1680556147
534,karasjok,69.4719,25.5112,-3.83,89,100,4.83,NO,1680556147
535,biak,-0.9131,122.8766,23.79,91,100,2.27,ID,1680556148
536,hasaki,35.7333,140.8333,6.23,57,0,4.89,JP,1680556149
537,vikhorevka,56.1201,101.1636,-4.23,90,100,5.66,RU,1680556149
538,rumoi,43.9344,141.6428,3.74,71,96,2.79,JP,1680556150
539,yerbogachen,61.2767,108.0108,-5.59,94,100,5.92,RU,1680556152
540,qaqortoq,60.7167,-46.0333,1.83,82,100,1.97,GL,1680556152
541,nicolas bravo,18.45,-88.9167,33.16,32,30,4.62,MX,1680556152
542,vicuna,-30.0319,-70.7081,29.87,25,47,3.58,CL,1680556153
543,sheridan,44.8333,-106.9173,4.21,43,20,0.89,US,1680556153
544,plettenberg bay,-34.0527,23.3716,15.98,85,82,3.33,ZA,1680555975
545,port alberni,49.2413,-124.8028,11.07,57,30,1.34,CA,1680556155
546,pekan,3.4836,103.3996,24.01,85,96,1.63,MY,1680556156
547,norsup,-16.0667,167.3833,28.32,76,71,4.19,VU,1680556157
548,otavi,-19.65,17.3333,19.89,65,92,4.17,NA,1680555949
549,svetlogorsk,52.6333,29.7333,-0.08,95,100,4.68,BY,1680556158
550,kensington,-33.9167,151.2167,17.1,86,40,2.57,AU,1680556159
551,bratsk,56.1325,101.6142,-4.73,85,100,6.0,RU,1680556075
552,kortemark,51.0233,3.0022,5.62,73,1,2.24,BE,1680556160
553,suhbaatar,50.2314,106.2078,-7.93,56,2,1.71,MN,1680556161
554,moissala,8.3404,17.7663,30.09,23,89,1.01,TD,1680556161
555,gondanglegi,-7.7479,112.0132,22.9,86,100,2.29,ID,1680556162
556,el coco,8.8703,-79.815,32.89,55,84,6.27,PA,1680556162
557,douglas,41.3,-96.167,15.93,28,40,9.77,US,1680556163
558,cherlak,54.155,74.8055,-0.27,67,0,3.39,RU,1680556163
559,panji,-7.7253,114.0995,23.6,88,100,1.82,ID,1680556164
560,ivanovka,42.8878,75.085,10.04,24,90,0.14,KG,1680556164
561,ossora,59.2353,163.0719,-4.49,95,96,2.47,RU,1680556165
562,north bend,43.4065,-124.2243,7.87,80,100,4.63,US,1680556165
563,camabatela,-8.1881,15.375,17.18,97,100,0.48,AO,1680556166
564,san luis,-33.295,-66.3356,22.46,58,100,6.56,AR,1680556166
565,jiwani,25.05,61.7417,23.81,71,0,7.4,PK,1680556074
566,diapaga,12.0708,1.7889,31.69,9,69,1.93,BF,1680556168
567,abu dhabi,24.4667,54.3667,23.86,63,20,3.09,AE,1680555915
568,chardara,41.2547,67.9692,14.07,77,90,2.58,KZ,1680555896
569,atbasar,51.8,68.3333,-0.71,79,0,3.65,KZ,1680556170
570,prince rupert,54.3161,-130.3201,4.05,81,100,2.57,CA,1680556170
571,lakes entrance,-37.8811,147.981,11.2,71,24,1.9,AU,1680556171
572,leshukonskoye,64.8989,45.7622,-12.27,95,25,2.09,RU,1680556171
573,fortuna,40.5982,-124.1573,9.96,73,83,2.68,US,1680556171
574,maragogi,-9.0122,-35.2225,26.12,75,84,3.81,BR,1680556172
575,sergeyevka,53.88,67.4158,0.55,78,0,2.8,KZ,1680556172
576,honiara,-9.4333,159.95,27.14,82,99,2.64,SB,1680556173
577,ouahigouya,13.5828,-2.4216,33.03,8,76,3.59,BF,1680556173
